time,"[inertial_nav_node_[imu]]\omega_{ib,x}^b_rad/s","[inertial_nav_node_[imu]]\omega_{ib,y}^b_rad/s","[inertial_nav_node_[imu]]\omega_{ib,z}^b_rad/s","[inertial_nav_node_[imu]]f_{ib,x}^b_m/s^2","[inertial_nav_node_[imu]]f_{ib,y}^b_m/s^2","[inertial_nav_node_[imu]]f_{ib,z}^b_m/s^2",[inertial_nav_node_[gps]]lat_rad,[inertial_nav_node_[gps]]lon_rad,[inertial_nav_node_[gps]]alt_m,[inertial_nav_node_[gps]]num_sats_?,[inertial_nav_node_[gps]]y_1_?,[inertial_nav_node_[gps]]y_2_?,[inertial_nav_node_[gps]]y_3_?,[inertial_nav_node_[gps]]y_bar_1_?,[inertial_nav_node_[gps]]y_bar_2_?,[inertial_nav_node_[gps]]y_bar_3_?,[inertial_nav_node_[gps]]P_yy_1_?,[inertial_nav_node_[gps]]P_yy_2_?,[inertial_nav_node_[gps]]P_yy_3_?,[inertial_nav_node_[gps]]P_yy_4_?,[inertial_nav_node_[gps]]P_yy_5_?,[inertial_nav_node_[gps]]P_yy_6_?,[inertial_nav_node_[gps]]P_yy_7_?,[inertial_nav_node_[gps]]P_yy_8_?,[inertial_nav_node_[gps]]P_yy_9_?,[inertial_nav_node_[gps]]innovation_1_?,[inertial_nav_node_[gps]]innovation_2_?,[inertial_nav_node_[gps]]innovation_3_?,[inertial_nav_node_[gps]]threshold_1_?,[inertial_nav_node_[gps]]threshold_2_?,[inertial_nav_node_[gps]]threshold_3_?,[inertial_nav_node_[gps]]accepted_?,[inertial_nav_node_[gps]]has\_lock_bool,[inertial_nav_node_[mag]]mx_Gauss,[inertial_nav_node_[mag]]my_Gauss,[inertial_nav_node_[mag]]mz_Gauss,[inertial_nav_node_[x]]roll_rad,[inertial_nav_node_[x]]pitch_rad,[inertial_nav_node_[x]]yaw_rad,[inertial_nav_node_[x]]v_x_m/s,[inertial_nav_node_[x]]v_y_m/s,[inertial_nav_node_[x]]v_z_m/s,[inertial_nav_node_[x]]lat_rad,[inertial_nav_node_[x]]lon_rad,[inertial_nav_node_[x]]alt_m,[inertial_nav_node_[x]]bgx_rad/s,[inertial_nav_node_[x]]bgy_rad/s,[inertial_nav_node_[x]]bgz_rad/s,[inertial_nav_node_[x]]bax_m/s^2,[inertial_nav_node_[x]]bay_m/s^2,[inertial_nav_node_[x]]baz_m/s^2,[inertial_nav_node_[P]]cov_roll_rad^2,[inertial_nav_node_[P]]cov_pitch_rad^2,[inertial_nav_node_[P]]cov_yaw_rad^2,[inertial_nav_node_[P]]cov_v_x_(m/s)^2,[inertial_nav_node_[P]]cov_v_y_(m/s)^2,[inertial_nav_node_[P]]cov_v_z_(m/s)^2,[inertial_nav_node_[P]]cov_lat_rad^2,[inertial_nav_node_[P]]cov_lon_rad^2,[inertial_nav_node_[P]]cov_alt_m^2,[inertial_nav_node_[P]]cov_bgx_(rad/s)^2,[inertial_nav_node_[P]]cov_bgy_(rad/s)^2,[inertial_nav_node_[P]]cov_bgz_(rad/s)^2,[inertial_nav_node_[P]]cov_bax_(m/s^2)^2,[inertial_nav_node_[P]]cov_bay_(m/s^2)^2,[inertial_nav_node_[P]]cov_baz_(m/s^2)^2,[inertial_nav_node_[depth]]-1.041788751e-03_5.294138127e-02,[inertial_nav_node_[depth]]4.683619436e-02_3.817346221e-01,[inertial_nav_node_[depth]]1.000061643e+02_2.366511429e-04,[inertial_nav_node_[depth]]-4.787798311e-02_-3.287932408e-01,[inertial_nav_node_[depth]]0.000000000e+00_0.000000000e+00,[inertial_nav_node_[depth]]1_1,[inertial_nav_node_[dvl]]-4.360178984e-03_-2.998190319e-03,[inertial_nav_node_[dvl]]-3.096704039e-03_1.695921844e-02,[inertial_nav_node_[dvl]]4.529677081e-03_3.036092400e-02,[inertial_nav_node_[dvl]]-4.135820899e-05_-5.300162049e-03,[inertial_nav_node_[dvl]]-4.840362620e-01_-1.499653186e+00,[inertial_nav_node_[dvl]]-1.170965101e+00_-3.198155640e+00,[inertial_nav_node_[dvl]]1.158791457e-02_3.531977466e-04,[inertial_nav_node_[dvl]]1.088407747e-02_6.819738781e-04,[inertial_nav_node_[dvl]]1.088292512e-02_3.823290576e-04,[inertial_nav_node_[dvl]]-4.318820775e-03_2.301971730e-03,[inertial_nav_node_[dvl]]4.809395580e-01_1.516612405e+00,[inertial_nav_node_[dvl]]1.175494778e+00_3.228516564e+00,[inertial_nav_node_[dvl]]0.000000000e+00_0.000000000e+00,[inertial_nav_node_[dvl]]0.000000000e+00_0.000000000e+00,[inertial_nav_node_[dvl]]0.000000000e+00_0.000000000e+00,[inertial_nav_node_[dvl]]1_1
1681084482.0159082,5.565337225e-05,-5.042158076e-05,-5.334495739e-05,3.865094933e-03,-4.257967945e-03,-9.796634018e+00,10,6.467839662e-01,-1.406985679e+00,-5.453993238e-01,0.000000000e+00,0.000000000e+00,6.467833206e-01,-1.406985905e+00,-1.669278341e+00,1.259933162e+00,-1.453209690e+00,2.053095601e-13,2.053127926e-13,1.000000400e+02,1.139742768e-02,1.141657559e-02,6.455696713e-07,2.257183456e-07,1.123879017e+00,-1.259933162e+00,1.453209690e+00,0.000000000e+00,0.000000000e+00,0.000000000e+00,0.000000000e+00,0.000000000e+00,1,0.35535,-0.35348,-0.00162,-2.275480125e+00,-1.881892649e-02,7.902865439e-01,7.377841735e-01,-9.194217524e-01,4.561573296e+00,6.467834474e-01,-1.406985701e+00,-1.148651020e+00,-1.501035516e-10,1.686007842e-12,2.027895962e-11,2.343399624e-05,3.370220381e-04,-1.335986465e-03,4.302499718e-05,4.240806551e-05,3.128771342e-06,1.111337214e-03,1.126870201e-03,1.353950252e-04,5.132797589e-14,5.132880884e-14,1.254037964e-04,6.941157470e-14,6.941157470e-14,6.941157470e-14,1.691001675e-07,1.691003462e-07,1.690957084e-07,5.705992377e-04,1.275217553e+00,1.180558333e-04,-1.274646954e+00,0.000000000e+00,1,1.197556815e-03,1.053719103e-03,2.463000469e-03,-4.265736388e-02,-3.862655501e+00,-5.465714248e+00,3.378172324e-03,1.054666858e-03,6.489123492e-04,4.385492069e-02,3.863709220e+00,5.468177248e+00,0.000000000e+00,0.000000000e+00,0.000000000e+00,1
1681084482.1159081,1.200109090e-04,-4.882099123e-05,-1.008725807e-04,1.376903680e-03,3.042196026e-04,-9.799319509e+00,10,6.467839662e-01,-1.406985679e+00,-5.453993238e-01,0.000000000e+00,0.000000000e+00,6.467833206e-01,-1.406985905e+00,-1.669278341e+00,1.259933162e+00,-1.453209690e+00,2.053095601e-13,2.053127926e-13,1.000000400e+02,1.139742768e-02,1.141657559e-02,6.455696713e-07,2.257183456e-07,1.123879017e+00,-1.259933162e+00,1.453209690e+00,0.000000000e+00,0.000000000e+00,0.000000000e+00,0.000000000e+00,0.000000000e+00,1,0.35096,-0.35198,0.00004,-2.275480751e+00,-1.881722389e-02,7.902963159e-01,1.103243646e+00,-1.293009940e+00,5.691821709e+00,6.467834578e-01,-1.406985717e+00,-1.513170909e+00,-1.501035516e-10,1.686007842e-12,2.027895962e-11,2.343399624e-05,3.370220381e-04,-1.335986465e-03,4.304638553e-05,4.242889845e-05,3.143086704e-06,1.307880509e-03,1.325892467e-03,2.032546973e-04,5.132898826e-14,5.133041256e-14,1.310580838e-04,6.942774540e-14,6.942774540e-14,6.942774540e-14,1.691395628e-07,1.691397415e-07,1.691351037e-07,5.705992377e-04,1.275217553e+00,1.180558333e-04,-1.274646954e+00,0.000000000e+00,1,-9.894423450e-03,3.466675465e-03,2.093476083e-03,-1.406718409e-02,-4.074891725e+00,-6.495690497e+00,2.530203290e-04,2.846818896e-04,2.346472800e-04,4.172760635e-03,4.078358400e+00,6.497783973e+00,0.000000000e+00,0.000000000e+00,0.000000000e+00,1
1681084482.215908,7.171999783e-05,-5.036091516e-05,1.660368568e-05,1.183085830e-03,3.857064281e-03,-9.796400611e+00,10,6.467841707e-01,-1.406986307e+00,7.431163571e-01,0.000000000e+00,0.000000000e+00,6.467833947e-01,-1.406985667e+00,-2.434829550e+00,-2.035411813e-02,9.826548466e-01,1.924805573e-13,1.924832006e-13,1.000000424e+02,1.164959997e-02,1.161756744e-02,7.759361386e-07,-6.402376125e-07,3.177945907e+00,2.035411813e-02,-9.826548466e-01,0.000000000e+00,0.000000000e+00,0.000000000e+00,0.000000000e+00,0.000000000e+00,1,0.35349,-0.35214,-0.00164,-2.701146989e+00,9.249495761e-02,7.615828075e-01,-2.289246550e-01,1.130160912e+00,7.720155508e+00,6.467835427e-01,-1.406985504e+00,-1.813046100e+00,3.208818769e-10,1.582460604e-10,-2.137308914e-11,-5.052086436e-05,7.275246146e-04,-2.977046005e-03,3.126453063e-05,3.193396143e-05,3.167404642e-06,1.419509539e-03,1.391991370e-03,2.669581935e-04,3.849823793e-14,3.850011894e-14,1.134139283e-04,6.946239687e-14,6.946239687e-14,6.946239690e-14,1.692093103e-07,1.692144507e-07,1.692086791e-07,-1.990772433e-04,2.633670665e+00,1.316163436e-04,-2.633869743e+00,0.000000000e+00,1,9.537064376e-03,1.502305929e-02,1.209906674e-02,-9.946510963e-02,-4.763016169e+00,-8.114540616e+00,2.327629200e-04,2.380246451e-04,2.238842189e-04,1.090021740e-01,4.778039228e+00,8.126639683e+00,0.000000000e+00,0.000000000e+00,0.000000000e+00,1
1681084482.315908,6.433888162e-05,-6.489049237e-05,-1.662103430e-05,2.068967430e-03,9.215774427e-04,-9.799434629e+00,10,6.467838179e-01,-1.406985705e+00,-2.191376226e-01,0.000000000e+00,0.000000000e+00,6.467833694e-01,-1.406986188e+00,-2.937166267e+00,-2.673324921e+00,-5.263709044e+00,1.847804346e-13,1.847834258e-13,1.000000575e+02,1.168348037e-02,1.180690144e-02,4.485383597e-07,4.825235160e-07,2.718028644e+00,2.673324921e+00,5.263709044e+00,0.000000000e+00,0.000000000e+00,0.000000000e+00,0.000000000e+00,0.000000000e+00,1,0.35305,-0.35434,0.00026,-2.690071155e+00,7.730916913e-02,7.623770682e-01,1.963759297e-01,6.637669320e-01,1.010403532e+01,6.467836969e-01,-1.406985617e+00,-2.996060235e+00,3.134604876e-10,1.512230286e-10,-2.366348145e-11,-3.855945905e-05,7.181553520e-04,-2.978907686e-03,2.699065522e-05,2.743926717e-05,3.212043590e-06,1.654136723e-03,1.626106841e-03,3.221575585e-04,3.080008482e-14,3.080238531e-14,1.217138601e-04,6.949242817e-14,6.949242817e-14,6.949242820e-14,1.692786785e-07,1.692857312e-07,1.692817866e-07,-1.990772433e-04,2.633670665e+00,1.316163436e-04,-2.633869743e+00,0.000000000e+00,1,9.537064376e-03,1.502305929e-02,1.209906674e-02,-9.946510963e-02,-4.763016169e+00,-8.114540616e+00,2.327629200e-04,2.380246451e-04,2.238842189e-04,1.090021740e-01,4.778039228e+00,8.126639683e+00,0.000000000e+00,0.000000000e+00,0.000000000e+00,1
1681084482.4159079,6.356207279e-05,-6.956632900e-05,-5.300681479e-05,-2.496855697e-03,-1.276682879e-03,-9.795537917e+00,10,6.467838179e-01,-1.406985705e+00,-2.191376226e-01,0.000000000e+00,0.000000000e+00,6.467833694e-01,-1.406986188e+00,-2.937166267e+00,-2.673324921e+00,-5.263709044e+00,1.847804346e-13,1.847834258e-13,1.000000575e+02,1.168348037e-02,1.180690144e-02,4.485383597e-07,4.825235160e-07,2.718028644e+00,2.673324921e+00,5.263709044e+00,0.000000000e+00,0.000000000e+00,0.000000000e+00,0.000000000e+00,0.000000000e+00,1,0.35392,-0.35415,0.00067,-2.471547418e+00,-4.961011935e-01,8.953708991e-01,-2.056989101e+00,-4.426801770e+00,9.782230801e+00,6.467835784e-01,-1.406985893e+00,-3.640544816e+00,3.251911062e-10,-7.235269468e-11,-1.933094674e-10,4.929040055e-04,5.898890291e-04,-6.417674907e-03,2.008620948e-05,1.883181500e-05,3.231807738e-06,1.443868972e-03,1.534607860e-03,2.863781998e-04,2.566800430e-14,2.567118124e-14,9.928034099e-05,6.952476954e-14,6.952476953e-14,6.952476960e-14,1.693263398e-07,1.693384144e-07,1.693340357e-07,-1.879084211e-02,1.349586474e+00,1.497814480e-04,-1.368377317e+00,0.000000000e+00,1,-8.115221270e-03,8.605964940e-03,-1.738881773e-02,9.534487751e-01,-6.368241698e+00,-1.088841640e+01,6.768862240e-04,3.139416953e-04,5.152283589e-04,-9.615639964e-01,6.376847663e+00,1.087102758e+01,0.000000000e+00,0.000000000e+00,0.000000000e+00,1
1681084482.5159078,7.311186932e-05,-4.673442323e-05,-1.155288740e-05,-3.714191686e-03,7.311153750e-04,-9.797923930e+00,10,6.467834176e-01,-1.406985916e+00,5.701084574e-01,0.000000000e+00,0.000000000e+00,6.467845954e-01,-1.406986195e+00,-1.737237226e+00,1.325617471e+01,-4.929634211e+00,1.796471740e-13,1.796551856e-13,1.000000431e+02,1.048842501e-02,1.094408106e-02,-1.177816573e-06,2.792125795e-07,2.307345683e+00,-1.325617471e+01,4.929634211e+00,0.000000000e+00,0.000000000e+00,0.000000000e+00,0.000000000e+00,0.000000000e+00,1,0.35334,-0.35453,-0.00190,-1.525016096e+00,3.876977047e-01,1.069886965e+00,1.221155074e+01,-2.551450711e+00,7.649872723e+00,6.467845435e-01,-1.406985727e+00,-1.707799013e+00,-1.132002587e-09,1.852694951e-09,-2.055616972e-09,-2.538874130e-03,-1.399395585e-03,-8.884860304e-03,1.286012121e-05,5.190265426e-06,2.386890694e-06,5.333759227e-04,1.333356636e-03,3.262823123e-04,2.566645595e-14,2.567586548e-14,5.342460935e-05,6.955942097e-14,6.955942099e-14,6.955942101e-14,1.693845354e-07,1.693961649e-07,1.693949070e-07,-1.879084211e-02,1.349586474e+00,1.497814480e-04,-1.368377317e+00,0.000000000e+00,1,1.009087972e-02,1.426774915e-02,4.720646825e-04,-7.686910639e-02,-1.029652183e+01,-1.291852512e+01,3.962856218e-04,6.433785000e-04,2.713721919e-04,8.695998610e-02,1.031078958e+01,1.291899719e+01,0.000000000e+00,0.000000000e+00,0.000000000e+00,1
1681084482.6159077,1.024629817e-04,-4.499778383e-06,-4.219867664e-06,1.660192804e-03,-1.692798090e-03,-9.795421871e+00,10,6.467845459e-01,-1.406986203e+00,-8.019253630e-01,0.000000000e+00,0.000000000e+00,6.467838030e-01,-1.406986648e+00,-3.078126624e+00,4.619053117e+00,-9.132139139e+00,1.759789213e-13,1.759867195e-13,1.000000331e+02,1.019345309e-02,1.071034137e-02,7.428584349e-07,4.458339955e-07,2.276201261e+00,-4.619053117e+00,9.132139139e+00,0.000000000e+00,0.000000000e+00,0.000000000e+00,0.000000000e+00,0.000000000e+00,1,0.35471,-0.35288,0.00074,-1.674175964e+00,-3.256489714e-01,6.995989368e-01,4.378216250e+00,-8.826012965e+00,8.741113598e+00,6.467839222e-01,-1.406986422e+00,-3.131512837e+00,3.763708911e-09,-2.027254240e-10,1.568931513e-09,1.468306865e-03,6.209940187e-04,-1.544319276e-02,6.469800930e-06,1.403191914e-06,1.268839622e-06,1.881345134e-04,6.984822623e-04,1.582538655e-04,2.199861035e-14,2.200660973e-14,2.633118850e-05,6.960100266e-14,6.960100255e-14,6.960100275e-14,1.694254224e-07,1.694541352e-07,1.694341919e-07,8.658085056e-02,3.121475877e+00,1.171511502e-04,-3.034895026e+00,0.000000000e+00,1,-4.852120113e-03,-9.101116770e-03,-2.302018105e-03,1.443709735e+00,-1.009552060e+01,-1.204532802e+01,2.730638093e-04,4.165306327e-04,2.426165783e-04,-1.448561855e+00,1.008641948e+01,1.204302601e+01,0.000000000e+00,0.000000000e+00,0.000000000e+00,1
1681084482.7159076,5.128853052e-05,-3.095226636e-05,-3.526879001e-05,-4.613780415e-04,1.441729288e-03,-9.799322542e+00,10,6.467838319e-01,-1.406986328e+00,-6.138691330e-01,0.000000000e+00,0.000000000e+00,6.467842762e-01,-1.406985675e+00,-5.214002655e+00,8.419070801e+00,-1.097407377e+00,1.732299880e-13,1.732344994e-13,1.000000374e+02,1.020130780e-02,1.031178579e-02,-4.442938705e-07,-6.539642479e-07,4.600133522e+00,-8.419070801e+00,1.097407377e+00,0.000000000e+00,0.000000000e+00,0.000000000e+00,0.000000000e+00,0.000000000e+00,1,0.35526,-0.35253,-0.00196,-1.714338256e+00,-2.940639321e-01,7.211004750e-01,5.075982431e+00,-9.115027790e+00,1.020239050e+01,6.467840974e-01,-1.406986500e+00,-4.220179886e+00,3.832561855e-09,-1.595064459e-10,1.468273232e-09,1.389821938e-03,7.053935247e-04,-1.551556058e-02,6.094454898e-06,1.392746229e-06,1.282013045e-06,1.980730740e-04,6.845890900e-04,2.020388975e-04,1.924911946e-14,1.925752524e-14,3.622520525e-05,6.962641376e-14,6.962641365e-14,6.962641385e-14,1.694844622e-07,1.695152684e-07,1.694955745e-07,8.658085056e-02,3.121475877e+00,1.171511502e-04,-3.034895026e+00,0.000000000e+00,1,-4.852120113e-03,-9.101116770e-03,-2.302018105e-03,1.443709735e+00,-1.009552060e+01,-1.204532802e+01,2.730638093e-04,4.165306327e-04,2.426165783e-04,-1.448561855e+00,1.008641948e+01,1.204302601e+01,0.000000000e+00,0.000000000e+00,0.000000000e+00,1
1681084482.8159075,7.483677711e-05,-2.879291925e-05,-3.952862588e-05,8.329899312e-04,-1.328609154e-03,-9.797506819e+00,10,6.467838319e-01,-1.406986328e+00,-6.138691330e-01,0.000000000e+00,0.000000000e+00,6.467842762e-01,-1.406985675e+00,-5.214002655e+00,8.419070801e+00,-1.097407377e+00,1.732299880e-13,1.732344994e-13,1.000000374e+02,1.020130780e-02,1.031178579e-02,-4.442938705e-07,-6.539642479e-07,4.600133522e+00,-8.419070801e+00,1.097407377e+00,0.000000000e+00,0.000000000e+00,0.000000000e+00,0.000000000e+00,0.000000000e+00,1,0.35483,-0.35401,0.00068,-1.958903238e+00,2.134377897e-01,9.696966464e-01,8.418984588e+00,-1.097355663e+00,1.343124239e+01,6.467843887e-01,-1.406985469e+00,-4.940033887e+00,7.808510262e-09,2.258097288e-09,-3.390661241e-09,-2.270793982e-03,1.298400630e-03,-2.193409345e-02,2.204718848e-06,1.291183163e-06,1.019237992e-06,2.013076582e-04,3.117825902e-04,1.249357719e-04,1.924966381e-14,1.925347801e-14,3.384744522e-05,6.965413482e-14,6.965413465e-14,6.965413501e-14,1.695019193e-07,1.695459529e-07,1.695135713e-07,-1.473891871e-02,5.789412783e+00,1.211378992e-04,-5.804151702e+00,0.000000000e+00,1,-2.237598906e-04,1.493151504e-02,-9.605187574e-03,1.370834576e+00,-1.004668604e+01,-1.244328720e+01,2.262535170e-04,2.197304612e-04,2.224121446e-04,-1.371058335e+00,1.006161755e+01,1.243368201e+01,0.000000000e+00,0.000000000e+00,0.000000000e+00,1
1681084482.9159074,1.830308965e-05,2.358337363e-06,-4.950435242e-05,-9.117206683e-04,-3.124886750e-03,-9.798889588e+00,10,6.467836256e-01,-1.406986276e+00,1.146478031e+00,0.000000000e+00,0.000000000e+00,6.467840195e-01,-1.406986865e+00,-4.470099528e+00,5.729365828e+00,-9.622226879e+00,1.710914858e-13,1.710947364e-13,1.000000351e+02,1.019743125e-02,1.029180695e-02,-3.939143071e-07,5.890655652e-07,5.616577559e+00,-5.729365828e+00,9.622226879e+00,0.000000000e+00,0.000000000e+00,0.000000000e+00,0.000000000e+00,0.000000000e+00,1,0.35642,-0.35188,-0.00162,-1.651990679e+00,-3.146105939e-01,7.506668724e-01,5.341569968e+00,-9.185159737e+00,1.036290197e+01,6.467841086e-01,-1.406986590e+00,-4.226407052e+00,9.416617973e-09,2.816951347e-10,6.157670783e-10,9.456332432e-04,-3.627969426e-03,-3.264646351e-02,1.726640651e-06,1.072842723e-06,9.720057805e-07,1.897317478e-04,2.829989161e-04,9.970913260e-05,1.711102807e-14,1.711455116e-14,3.008766560e-05,6.968416576e-14,6.968416561e-14,6.968416615e-14,1.695043672e-07,1.695413505e-07,1.695004460e-07,5.670628379e-03,4.881256801e+00,1.189057004e-04,-4.875586173e+00,0.000000000e+00,1,-2.459231973e-03,-1.282986551e-02,-2.128657372e-03,1.560658498e+00,-1.147070135e+01,-1.296823560e+01,2.252654548e-04,2.338073600e-04,2.205831243e-04,-1.563117729e+00,1.145787148e+01,1.296610694e+01,0.000000000e+00,0.000000000e+00,0.000000000e+00,1
1681084483.0159073,1.218683263e-04,-5.688133702e-05,-2.075744291e-05,-5.174537044e-03,-1.159356023e-03,-9.799351869e+00,10,6.467834976e-01,-1.406985832e+00,2.113260948e-01,0.000000000e+00,0.000000000e+00,6.467845966e-01,-1.406986326e+00,-5.442533542e+00,1.069860893e+01,-5.497152126e+00,1.693820483e-13,1.693849804e-13,1.000000399e+02,1.020621939e-02,1.024382812e-02,-1.098963208e-06,4.943953982e-07,5.653859637e+00,-1.069860893e+01,5.497152126e+00,0.000000000e+00,0.000000000e+00,0.000000000e+00,0.000000000e+00,0.000000000e+00,1,0.35325,-0.35414,0.00043,-1.664606633e+00,-3.068190958e-01,7.588949001e-01,6.311995551e+00,-1.006721237e+01,1.207426906e+01,6.467842053e-01,-1.406986786e+00,-5.959956854e+00,9.476328749e-09,3.145426475e-10,5.163958737e-10,8.852416935e-04,-3.550561896e-03,-3.276018185e-02,1.707289766e-06,1.065407444e-06,9.807609569e-07,2.043539272e-04,2.959469662e-04,1.280170159e-04,1.540058904e-14,1.540474606e-14,4.577251192e-05,6.971881726e-14,6.971881711e-14,6.971881764e-14,1.695853114e-07,1.696251455e-07,1.695837957e-07,5.670628379e-03,4.881256801e+00,1.189057004e-04,-4.875586173e+00,0.000000000e+00,1,-2.459231973e-03,-1.282986551e-02,-2.128657372e-03,1.560658498e+00,-1.147070135e+01,-1.296823560e+01,2.252654548e-04,2.338073600e-04,2.205831243e-04,-1.563117729e+00,1.145787148e+01,1.296610694e+01,0.000000000e+00,0.000000000e+00,0.000000000e+00,1
1681084483.1159072,-4.348606561e-05,-4.891610442e-05,-5.867994028e-05,-9.400415476e-04,-1.856452963e-03,-9.797984673e+00,10,6.467834976e-01,-1.406985832e+00,2.113260948e-01,0.000000000e+00,0.000000000e+00,6.467845966e-01,-1.406986326e+00,-5.442533542e+00,1.069860893e+01,-5.497152126e+00,1.693820483e-13,1.693849804e-13,1.000000399e+02,1.020621939e-02,1.024382812e-02,-1.098963208e-06,4.943953982e-07,5.653859637e+00,-1.069860893e+01,5.497152126e+00,0.000000000e+00,0.000000000e+00,0.000000000e+00,0.000000000e+00,0.000000000e+00,1,0.35393,-0.35185,0.00054,-1.609793533e+00,-1.728410578e-02,9.440795134e-01,1.061960713e+01,-5.439929054e+00,1.184143439e+01,6.467846994e-01,-1.406986110e+00,-5.345456674e+00,1.398702051e-08,4.208609573e-11,-3.733335537e-09,-2.555678698e-03,-7.782688370e-03,-4.472060074e-02,1.230152479e-06,9.822753542e-07,9.102312947e-07,2.051338782e-04,2.422642708e-04,9.926402761e-05,1.540120156e-14,1.540469806e-14,3.789698726e-05,6.974422764e-14,6.974422752e-14,6.974422850e-14,1.695710119e-07,1.695951627e-07,1.695465983e-07,6.977708365e-02,5.847188015e+00,1.227085009e-04,-5.777410931e+00,0.000000000e+00,1,-1.121218277e-02,3.891632791e-03,2.022773191e-02,2.108876464e+00,-1.195497160e+01,-1.308198508e+01,2.281871735e-04,2.066319342e-04,2.111615195e-04,-2.120088647e+00,1.195886323e+01,1.310221281e+01,0.000000000e+00,0.000000000e+00,0.000000000e+00,1
1681084483.215907,1.454926671e-05,8.524341797e-06,-2.811105901e-05,-3.676474041e-03,-3.233068227e-03,-9.796430984e+00,10,6.467836507e-01,-1.406985910e+00,2.816592725e-02,0.000000000e+00,0.000000000e+00,6.467842688e-01,-1.406987184e+00,-5.225991974e+00,8.117221323e+00,-1.084692559e+01,1.679822125e-13,1.679862725e-13,1.000000364e+02,1.019899758e-02,1.024113024e-02,-6.181068154e-07,1.274000554e-06,5.254157901e+00,-8.117221323e+00,1.084692559e+01,0.000000000e+00,0.000000000e+00,0.000000000e+00,0.000000000e+00,0.000000000e+00,1,0.35281,-0.35607,-0.00002,-1.476332096e+00,-2.939186458e-01,7.506088236e-01,7.572363958e+00,-1.029461733e+01,1.024564146e+01,6.467843123e-01,-1.406986851e+00,-4.748984092e+00,1.858529081e-08,3.817805422e-10,-8.068395280e-10,5.156600405e-04,-1.422596879e-02,-5.952408543e-02,1.084437423e-06,8.600946287e-07,8.859935403e-07,1.902768887e-04,2.318246066e-04,7.572490209e-05,1.400123458e-14,1.400468932e-14,3.096799393e-05,6.977194784e-14,6.977194795e-14,6.977194938e-14,1.695492072e-07,1.695325032e-07,1.694866397e-07,-1.343675874e-02,5.492111346e+00,1.174338804e-04,-5.505548104e+00,0.000000000e+00,1,-1.519884544e-02,3.509783108e-03,2.879349842e-03,2.096177631e+00,-1.301347542e+01,-1.326088557e+01,2.430241905e-04,2.105437788e-04,2.141109692e-04,-2.111376476e+00,1.301698521e+01,1.326376492e+01,0.000000000e+00,0.000000000e+00,0.000000000e+00,1
1681084483.315907,5.878282269e-05,-6.444475972e-05,-2.729564007e-05,2.352866034e-03,1.884026066e-03,-9.797225646e+00,10,6.467835146e-01,-1.406986133e+00,-3.482061118e-01,0.000000000e+00,0.000000000e+00,6.467849065e-01,-1.406986769e+00,-5.405330397e+00,1.255675638e+01,-8.040256797e+00,1.668164381e-13,1.668196342e-13,1.000000375e+02,1.020440036e-02,1.022917262e-02,-1.391912265e-06,6.354909017e-07,5.057124285e+00,-1.255675638e+01,8.040256797e+00,0.000000000e+00,0.000000000e+00,0.000000000e+00,0.000000000e+00,0.000000000e+00,1,0.35563,-0.35569,0.00011,-1.483287216e+00,-2.903165067e-01,7.560119479e-01,8.393287767e+00,-1.098810844e+01,1.139982399e+01,6.467844102e-01,-1.406986974e+00,-6.090282403e+00,1.864106441e-08,3.585379689e-10,-9.117442240e-10,4.688592474e-04,-1.417647648e-02,-5.972048393e-02,1.113454572e-06,8.947106087e-07,8.957490973e-07,1.973335224e-04,2.379919482e-04,8.926187501e-05,1.283496997e-14,1.283868438e-14,4.189330442e-05,6.979966904e-14,6.979966915e-14,6.979967058e-14,1.696123817e-07,1.695997317e-07,1.695520210e-07,-1.343675874e-02,5.492111346e+00,1.174338804e-04,-5.505548104e+00,0.000000000e+00,1,-1.519884544e-02,3.509783108e-03,2.879349842e-03,2.096177631e+00,-1.301347542e+01,-1.326088557e+01,2.430241905e-04,2.105437788e-04,2.141109692e-04,-2.111376476e+00,1.301698521e+01,1.326376492e+01,0.000000000e+00,0.000000000e+00,0.000000000e+00,1
1681084483.415907,-1.315975856e-05,-6.070690267e-05,-3.578576495e-05,1.134163495e-03,7.964214035e-04,-9.800971428e+00,10,6.467835146e-01,-1.406986133e+00,-3.482061118e-01,0.000000000e+00,0.000000000e+00,6.467849065e-01,-1.406986769e+00,-5.405330397e+00,1.255675638e+01,-8.040256797e+00,1.668164381e-13,1.668196342e-13,1.000000375e+02,1.020440036e-02,1.022917262e-02,-1.391912265e-06,6.354909017e-07,5.057124285e+00,-1.255675638e+01,8.040256797e+00,0.000000000e+00,0.000000000e+00,0.000000000e+00,0.000000000e+00,0.000000000e+00,1,0.35442,-0.35271,0.00089,-1.374913873e+00,-1.177151183e-01,9.053993467e-01,1.248032859e+01,-7.983178787e+00,1.047425668e+01,6.467850115e-01,-1.406986555e+00,-5.451698520e+00,2.617487470e-08,-3.097699928e-09,-2.929663858e-09,-1.774425119e-03,-2.265503163e-02,-7.581229291e-02,9.609488650e-07,8.756396606e-07,9.210452268e-07,2.035380186e-04,2.278778281e-04,7.284138200e-05,1.283602608e-14,1.284005347e-14,3.723905649e-05,6.983431938e-14,6.983431991e-14,6.983432167e-14,1.696120509e-07,1.695380193e-07,1.694926605e-07,1.647744745e-02,5.638580868e+00,1.179212657e-04,-5.622103421e+00,0.000000000e+00,1,6.115459037e-03,1.317126521e-02,3.731613998e-03,2.782916077e+00,-1.374638883e+01,-1.334257686e+01,2.282223708e-04,2.024754470e-04,2.107957927e-04,-2.776800618e+00,1.375956010e+01,1.334630848e+01,0.000000000e+00,0.000000000e+00,0.000000000e+00,1
1681084483.5159068,1.743050927e-05,-2.923024703e-05,-8.696120486e-05,-1.466374716e-03,3.265823066e-03,-9.796697774e+00,10,6.467834708e-01,-1.406986030e+00,8.386778283e-01,0.000000000e+00,0.000000000e+00,6.467845733e-01,-1.406987693e+00,-5.237697087e+00,1.006518142e+01,-1.267972287e+01,1.658298174e-13,1.658347592e-13,1.000000348e+02,1.019995200e-02,1.023375821e-02,-1.102552695e-06,1.663380896e-06,6.076374916e+00,-1.006518142e+01,1.267972287e+01,0.000000000e+00,0.000000000e+00,0.000000000e+00,0.000000000e+00,0.000000000e+00,1,0.35434,-0.35288,-0.00043,-1.226064171e+00,-1.613550075e-01,8.771721861e-01,1.411841398e+01,-9.927548230e+00,8.766192907e+00,6.467852951e-01,-1.406986996e+00,-4.566976595e+00,2.773221565e-08,-3.643427122e-09,-2.755040955e-09,-1.582288434e-03,-2.602672351e-02,-7.713029283e-02,8.915818717e-07,8.628688977e-07,9.021822659e-07,2.044467098e-04,2.299125691e-04,5.641460555e-05,1.184914266e-14,1.185321331e-14,3.047270617e-05,6.986204057e-14,6.986204110e-14,6.986204286e-14,1.696747182e-07,1.695620335e-07,1.695530599e-07,1.647744745e-02,5.638580868e+00,1.179212657e-04,-5.622103421e+00,0.000000000e+00,1,6.115459037e-03,1.317126521e-02,3.731613998e-03,2.782916077e+00,-1.374638883e+01,-1.334257686e+01,2.282223708e-04,2.024754470e-04,2.107957927e-04,-2.776800618e+00,1.375956010e+01,1.334630848e+01,0.000000000e+00,0.000000000e+00,0.000000000e+00,1
1681084483.6159067,1.973229370e-05,-4.616967354e-05,-8.147663868e-05,2.018557749e-03,3.227194199e-05,-9.794919141e+00,10,6.467840949e-01,-1.406986061e+00,1.523201653e+00,0.000000000e+00,0.000000000e+00,6.467853679e-01,-1.406987355e+00,-4.465483597e+00,1.457943396e+01,-1.014828632e+01,1.649848849e-13,1.649895882e-13,1.000000334e+02,1.020328282e-02,1.023275882e-02,-1.272946801e-06,1.293588489e-06,5.988685250e+00,-1.457943396e+01,1.014828632e+01,0.000000000e+00,0.000000000e+00,0.000000000e+00,0.000000000e+00,0.000000000e+00,1,0.35386,-0.35297,-0.00095,-1.265393286e+00,-3.016805737e-01,7.074593252e-01,1.042346646e+01,-1.289007225e+01,1.013837584e+01,6.467847244e-01,-1.406987520e+00,-6.154822912e+00,3.507765062e-08,-1.805032047e-10,-8.510496775e-11,1.768946730e-03,-3.248090853e-02,-9.455583551e-02,9.079217987e-07,8.440829702e-07,8.805161720e-07,1.978582873e-04,2.308803469e-04,6.604709869e-05,1.100320619e-14,1.100779760e-14,4.157546379e-05,6.989437996e-14,6.989438153e-14,6.989438366e-14,1.696594942e-07,1.695053090e-07,1.694617629e-07,-2.278866689e-02,4.884976448e+00,1.170235520e-04,-4.907765114e+00,0.000000000e+00,1,-4.883887882e-03,2.440584978e-02,-9.654876421e-03,2.752325390e+00,-1.487775187e+01,-1.326620718e+01,2.504504824e-04,2.004345473e-04,2.148851044e-04,-2.757209277e+00,1.490215772e+01,1.325655231e+01,0.000000000e+00,0.000000000e+00,0.000000000e+00,1
1681084483.7159066,3.810479709e-06,-4.871534345e-05,-7.082796905e-05,-4.556214801e-04,-3.938914037e-03,-9.800125384e+00,10,6.467840949e-01,-1.406986061e+00,1.523201653e+00,0.000000000e+00,0.000000000e+00,6.467853679e-01,-1.406987355e+00,-4.465483597e+00,1.457943396e+01,-1.014828632e+01,1.649848849e-13,1.649895882e-13,1.000000334e+02,1.020328282e-02,1.023275882e-02,-1.272946801e-06,1.293588489e-06,5.988685250e+00,-1.457943396e+01,1.014828632e+01,0.000000000e+00,0.000000000e+00,0.000000000e+00,0.000000000e+00,0.000000000e+00,1,0.35351,-0.35486,0.00102,-1.117777021e+00,-1.838446227e-01,8.630388194e-01,1.436601407e+01,-9.996657765e+00,7.938090889e+00,6.467854295e-01,-1.406987105e+00,-4.460432706e+00,4.907873260e-08,-5.518807248e-09,5.877085904e-10,6.992648739e-04,-4.701450555e-02,-1.122437971e-01,7.946159758e-07,7.812652491e-07,9.128529048e-07,2.013630262e-04,2.293104748e-04,5.034466844e-05,1.100417797e-14,1.100927577e-14,3.292437640e-05,6.992209918e-14,6.992210231e-14,6.992210373e-14,1.696426427e-07,1.693648123e-07,1.693558042e-07,2.246986932e-02,4.420371533e+00,1.113698106e-04,-4.397901664e+00,0.000000000e+00,1,-1.209952301e-02,2.253849345e-02,-5.360893009e-03,3.357896251e+00,-1.545083230e+01,-1.314672665e+01,2.303813258e-04,2.062198003e-04,2.187703399e-04,-3.369995774e+00,1.547337079e+01,1.314136576e+01,0.000000000e+00,0.000000000e+00,0.000000000e+00,1
1681084483.8159065,5.647475516e-05,-2.587306193e-05,-1.757630092e-05,1.280705129e-03,1.748801814e-03,-9.798752113e+00,10,6.467832447e-01,-1.406986291e+00,-5.084887155e-01,0.000000000e+00,0.000000000e+00,6.467849917e-01,-1.406988274e+00,-4.514827351e+00,1.175505381e+01,-1.415108704e+01,1.642520617e-13,1.642574234e-13,1.000000312e+02,1.019803075e-02,1.023843562e-02,-1.746974439e-06,1.983529900e-06,4.006338636e+00,-1.175505381e+01,1.415108704e+01,0.000000000e+00,0.000000000e+00,0.000000000e+00,0.000000000e+00,0.000000000e+00,1,0.35243,-0.35268,0.00189,-1.120523916e+00,-1.862583882e-01,8.598414719e-01,1.518891260e+01,-1.069338635e+01,8.709675054e+00,6.467856297e-01,-1.406987289e+00,-5.577931643e+00,4.915709929e-08,-5.419906599e-09,5.755168478e-10,7.678181399e-04,-4.704656483e-02,-1.126128103e-01,8.064459222e-07,7.887266627e-07,9.163834872e-07,2.025347821e-04,2.359112284e-04,5.770925240e-05,1.027128865e-14,1.027672592e-14,4.313761225e-05,6.995213048e-14,6.995213359e-14,6.995213503e-14,1.697104097e-07,1.694378265e-07,1.694246353e-07,2.246986932e-02,4.420371533e+00,1.113698106e-04,-4.397901664e+00,0.000000000e+00,1,-1.209952301e-02,2.253849345e-02,-5.360893009e-03,3.357896251e+00,-1.545083230e+01,-1.314672665e+01,2.303813258e-04,2.062198003e-04,2.187703399e-04,-3.369995774e+00,1.547337079e+01,1.314136576e+01,0.000000000e+00,0.000000000e+00,0.000000000e+00,1
1681084483.9159064,5.110546620e-05,-9.485760510e-06,-1.657394177e-06,7.127369233e-04,4.378743148e-03,-9.802378895e+00,10,6.467834152e-01,-1.406985824e+00,8.174059204e-01,0.000000000e+00,0.000000000e+00,6.467858135e-01,-1.406987611e+00,-4.427694404e+00,1.597651251e+01,-1.033818629e+01,1.636117472e-13,1.636171641e-13,1.000000310e+02,1.019897200e-02,1.023713198e-02,-2.398337017e-06,1.786778917e-06,5.245100324e+00,-1.597651251e+01,1.033818629e+01,0.000000000e+00,0.000000000e+00,0.000000000e+00,0.000000000e+00,0.000000000e+00,1,0.35612,-0.35496,0.00010,-1.044031223e+00,-2.945754129e-01,6.610722420e-01,1.210768140e+01,-1.433113159e+01,8.028778062e+00,6.467851348e-01,-1.406988118e+00,-5.308069778e+00,6.223219350e-08,7.183719947e-10,3.230298931e-09,5.067303686e-03,-5.966676498e-02,-1.337644415e-01,8.006784953e-07,7.213277006e-07,9.035196197e-07,1.949364664e-04,2.348381113e-04,4.692601850e-05,9.629753976e-15,9.635664207e-15,3.768772268e-05,6.998677964e-14,6.998678388e-14,6.998678590e-14,1.696910745e-07,1.693062497e-07,1.692932672e-07,7.018554498e-03,4.410366050e+00,1.082916287e-04,-4.403347495e+00,0.000000000e+00,1,9.720164349e-04,-6.167670159e-03,1.101124137e-02,3.135738090e+00,-1.616550638e+01,-1.271665247e+01,2.344540280e-04,2.088764340e-04,2.275842940e-04,-3.134766073e+00,1.615933871e+01,1.272766371e+01,0.000000000e+00,0.000000000e+00,0.000000000e+00,1
1681084484.0159063,1.949662173e-05,-1.145494933e-04,-8.034899889e-05,-1.535080338e-03,-1.778827384e-03,-9.794181431e+00,10,6.467834152e-01,-1.406985824e+00,8.174059204e-01,0.000000000e+00,0.000000000e+00,6.467858135e-01,-1.406987611e+00,-4.427694404e+00,1.597651251e+01,-1.033818629e+01,1.636117472e-13,1.636171641e-13,1.000000310e+02,1.019897200e-02,1.023713198e-02,-2.398337017e-06,1.786778917e-06,5.245100324e+00,-1.597651251e+01,1.033818629e+01,0.000000000e+00,0.000000000e+00,0.000000000e+00,0.000000000e+00,0.000000000e+00,1,0.35213,-0.35275,-0.00152,-9.718450897e-01,-1.781709160e-01,8.616382445e-01,1.577709638e+01,-1.020556254e+01,7.012417953e+00,6.467858686e-01,-1.406987360e+00,-4.443917925e+00,7.941540386e-08,-7.784148637e-09,3.105950077e-09,4.574141923e-03,-7.560503255e-02,-1.542714648e-01,7.292487368e-07,7.534532231e-07,9.052152486e-07,1.969377988e-04,2.331921653e-04,3.807014424e-05,9.630736054e-15,9.637103337e-15,3.143682107e-05,7.001449837e-14,7.001450444e-14,7.001450583e-14,1.696689696e-07,1.691386392e-07,1.691474296e-07,-2.979862400e-02,4.267208378e+00,1.075816582e-04,-4.297007002e+00,0.000000000e+00,1,-2.962626753e-04,1.883355979e-02,7.990382799e-03,3.927518758e+00,-1.676931426e+01,-1.224257318e+01,2.364989355e-04,2.092472454e-04,2.379327132e-04,-3.927815020e+00,1.678814782e+01,1.225056356e+01,0.000000000e+00,0.000000000e+00,0.000000000e+00,1
1681084484.1159062,5.842207493e-05,-9.814552076e-05,-4.663957371e-05,-1.474403981e-03,1.163547766e-03,-9.794742061e+00,10,6.467836536e-01,-1.406986225e+00,2.093451003e-01,0.000000000e+00,0.000000000e+00,6.467851986e-01,-1.406988826e+00,-4.147472329e+00,1.211169188e+01,-1.529474173e+01,1.630457543e-13,1.630529891e-13,1.000000287e+02,1.019196041e-02,1.024140341e-02,-1.545010827e-06,2.600866239e-06,4.356817430e+00,-1.211169188e+01,1.529474173e+01,0.000000000e+00,0.000000000e+00,0.000000000e+00,0.000000000e+00,0.000000000e+00,1,0.35158,-0.35300,0.00153,-9.730258568e-01,-1.801532892e-01,8.568706497e-01,1.653156912e+01,-1.085274517e+01,7.605686471e+00,6.467860378e-01,-1.406987537e+00,-5.416249155e+00,7.956845062e-08,-7.564668571e-09,3.102794870e-09,4.664417916e-03,-7.571504150e-02,-1.547031095e-01,7.466063498e-07,7.785068812e-07,8.878370960e-07,1.984528263e-04,2.413111978e-04,4.318490492e-05,9.064958229e-15,9.071704110e-15,4.008444171e-05,7.004452967e-14,7.004453568e-14,7.004453713e-14,1.697370210e-07,1.692112316e-07,1.692154320e-07,-2.979862400e-02,4.267208378e+00,1.075816582e-04,-4.297007002e+00,0.000000000e+00,1,-2.962626753e-04,1.883355979e-02,7.990382799e-03,3.927518758e+00,-1.676931426e+01,-1.224257318e+01,2.364989355e-04,2.092472454e-04,2.379327132e-04,-3.927815020e+00,1.678814782e+01,1.225056356e+01,0.000000000e+00,0.000000000e+00,0.000000000e+00,1
1681084484.2159061,9.219423741e-05,-1.406100167e-04,-1.127702436e-04,-3.746701788e-03,8.834140586e-04,-9.796087878e+00,10,6.467843752e-01,-1.406986462e+00,-5.489151444e-01,0.000000000e+00,0.000000000e+00,6.467863134e-01,-1.406987790e+00,-3.849999279e+00,1.706751051e+01,-1.010948191e+01,1.625435786e-13,1.625515264e-13,1.000000285e+02,1.019081214e-02,1.023387468e-02,-1.938148035e-06,1.328511219e-06,3.301084135e+00,-1.706751051e+01,1.010948191e+01,0.000000000e+00,0.000000000e+00,0.000000000e+00,0.000000000e+00,0.000000000e+00,1,0.35323,-0.35318,0.00002,-8.808506421e-01,-2.457951540e-01,5.907304553e-01,1.239515585e+01,-1.538272087e+01,6.559043948e+00,6.467853643e-01,-1.406988636e+00,-4.733490528e+00,9.809189214e-08,6.262244293e-09,5.144078374e-09,1.039294818e-02,-9.274083959e-02,-1.763255969e-01,7.432353316e-07,6.650441872e-07,8.686786076e-07,1.882804470e-04,2.363679682e-04,3.500874129e-05,8.561588370e-15,8.568765378e-15,3.444592600e-05,7.007686874e-14,7.007687600e-14,7.007687711e-14,1.697107273e-07,1.690421543e-07,1.690518076e-07,8.826114861e-03,3.894906342e+00,1.044323683e-04,-3.886080228e+00,0.000000000e+00,1,-1.047785910e-02,-6.631343100e-03,-3.284855789e-03,3.351862578e+00,-1.745795531e+01,-1.164826633e+01,2.473078836e-04,2.094301487e-04,2.431653891e-04,-3.362340437e+00,1.745132397e+01,1.164498147e+01,0.000000000e+00,0.000000000e+00,0.000000000e+00,1
1681084484.315906,4.237152628e-05,-2.132168958e-05,-1.609247164e-05,-1.016651146e-03,1.625213618e-03,-9.799713523e+00,10,6.467838616e-01,-1.406986390e+00,6.062549467e-01,0.000000000e+00,0.000000000e+00,6.467855120e-01,-1.406989324e+00,-3.474384626e+00,1.208001860e+01,-1.584165535e+01,1.620934714e-13,1.621008055e-13,1.000000263e+02,1.017923243e-02,1.023171386e-02,-1.650397828e-06,2.933508439e-06,4.080639573e+00,-1.208001860e+01,1.584165535e+01,0.000000000e+00,0.000000000e+00,0.000000000e+00,0.000000000e+00,0.000000000e+00,1,0.35323,-0.35508,-0.00031,-8.079268757e-01,-1.421686385e-01,8.560717725e-01,1.700356610e+01,-1.024323456e+01,5.635069491e+00,6.467863457e-01,-1.406987571e+00,-4.096497765e+00,1.199517788e-07,-6.454053292e-09,6.546814163e-09,1.043487693e-02,-1.132608335e-01,-1.969539426e-01,6.909540125e-07,6.766891966e-07,8.377235448e-07,1.842237154e-04,2.260916714e-04,3.015566530e-05,8.111724408e-15,8.118816893e-15,3.146535894e-05,7.011613827e-14,7.011614728e-14,7.011614684e-14,1.697212071e-07,1.688539027e-07,1.689089435e-07,-3.679184853e-03,3.521995349e+00,1.038730503e-04,-3.525674534e+00,0.000000000e+00,1,1.338059247e-02,-1.567858592e-02,-1.871165507e-03,4.274895587e+00,-1.776307027e+01,-1.080043031e+01,2.373601801e-04,2.082173153e-04,2.545032879e-04,-4.261514995e+00,1.774739168e+01,1.079855915e+01,0.000000000e+00,0.000000000e+00,0.000000000e+00,1
1681084484.415906,3.180416331e-05,5.912593063e-05,-1.522285468e-04,-3.192487180e-03,1.478514668e-03,-9.800820680e+00,10,6.467838616e-01,-1.406986390e+00,6.062549467e-01,0.000000000e+00,0.000000000e+00,6.467855120e-01,-1.406989324e+00,-3.474384626e+00,1.208001860e+01,-1.584165535e+01,1.620934714e-13,1.621008055e-13,1.000000263e+02,1.017923243e-02,1.023171386e-02,-1.650397828e-06,2.933508439e-06,4.080639573e+00,-1.208001860e+01,1.584165535e+01,0.000000000e+00,0.000000000e+00,0.000000000e+00,0.000000000e+00,0.000000000e+00,1,0.35222,-0.35372,-0.00066,-7.200359241e-01,-1.677249131e-01,5.320409594e-01,1.187044476e+01,-1.560423406e+01,4.674827102e+00,6.467855903e-01,-1.406989042e+00,-3.452651580e+00,1.398661566e-07,1.580657478e-08,5.805651179e-09,1.727205312e-02,-1.329105418e-01,-2.171793457e-01,6.905858202e-07,5.628063233e-07,8.080114121e-07,1.747028514e-04,2.269108861e-04,2.491874983e-05,8.112469581e-15,8.120952413e-15,2.735073734e-05,7.014847752e-14,7.014848776e-14,7.014848616e-14,1.697046002e-07,1.686428878e-07,1.687255647e-07,-1.580841430e-02,3.057227772e+00,1.009785981e-04,-3.073036186e+00,0.000000000e+00,1,-1.536461163e-02,2.473068085e-03,-1.235566810e-02,3.268013620e+00,-1.822893572e+01,-9.984881083e+00,2.486464251e-04,2.062092858e-04,2.591290998e-04,-3.283378231e+00,1.823140879e+01,9.972525414e+00,0.000000000e+00,0.000000000e+00,0.000000000e+00,1
1681084484.5159059,2.111177464e-05,-2.697418710e-05,-6.151724286e-05,-2.175250683e-03,-1.716991807e-04,-9.799341781e+00,10,6.467831028e-01,-1.406986167e+00,6.395301105e-01,0.000000000e+00,0.000000000e+00,6.467867546e-01,-1.406988067e+00,-3.089467705e+00,1.704760178e+01,-1.002721730e+01,1.616890984e-13,1.616972646e-13,1.000000261e+02,1.017579660e-02,1.021687761e-02,-3.651785939e-06,1.899753853e-06,3.728997815e+00,-1.704760178e+01,1.002721730e+01,0.000000000e+00,0.000000000e+00,0.000000000e+00,0.000000000e+00,0.000000000e+00,1,0.35358,-0.35235,-0.00182,-7.197483000e-01,-1.673141217e-01,5.385118882e-01,1.245739562e+01,-1.603931162e+01,4.989939582e+00,6.467857514e-01,-1.406989236e+00,-4.037061592e+00,1.401970321e-07,1.541658934e-08,5.807271092e-09,1.724774330e-02,-1.331958626e-01,-2.176291572e-01,7.432149229e-07,5.698457420e-07,8.063526067e-07,1.790882062e-04,2.299968030e-04,2.714655785e-05,7.707449532e-15,7.716194459e-15,3.311845347e-05,7.017619871e-14,7.017620885e-14,7.017620736e-14,1.697687701e-07,1.687079731e-07,1.687878948e-07,-1.580841430e-02,3.057227772e+00,1.009785981e-04,-3.073036186e+00,0.000000000e+00,1,-1.536461163e-02,2.473068085e-03,-1.235566810e-02,3.268013620e+00,-1.822893572e+01,-9.984881083e+00,2.486464251e-04,2.062092858e-04,2.591290998e-04,-3.283378231e+00,1.823140879e+01,9.972525414e+00,0.000000000e+00,0.000000000e+00,0.000000000e+00,1
1681084484.6159058,6.972205828e-05,2.130080122e-05,-7.500981419e-05,-2.786877764e-03,-1.066582551e-03,-9.801219080e+00,10,6.467842177e-01,-1.406985842e+00,3.672547782e-01,0.000000000e+00,0.000000000e+00,6.467858321e-01,-1.406989475e+00,-2.593162016e+00,1.208936801e+01,-1.501310585e+01,1.613223707e-13,1.613321087e-13,1.000000235e+02,1.016156581e-02,1.020944442e-02,-1.614388626e-06,3.632741218e-06,2.960416794e+00,-1.208936801e+01,1.501310585e+01,0.000000000e+00,0.000000000e+00,0.000000000e+00,0.000000000e+00,0.000000000e+00,1,0.35452,-0.35461,0.00041,-6.473347571e-01,-9.821330090e-02,8.370342637e-01,1.702808294e+01,-1.018176166e+01,4.051932033e+00,6.467867458e-01,-1.406987848e+00,-3.296986065e+00,1.634711833e-07,-1.132099325e-09,9.868832074e-09,1.801819227e-02,-1.566532933e-01,-2.365693599e-01,5.967017532e-07,6.102321564e-07,7.603282550e-07,1.709238884e-04,2.112147188e-04,2.314394038e-05,7.340850160e-15,7.349085612e-15,2.922826082e-05,7.021084774e-14,7.021085994e-14,7.021085657e-14,1.697817408e-07,1.684504568e-07,1.686136568e-07,-3.873874871e-03,2.594840610e+00,1.005811473e-04,-2.598714485e+00,0.000000000e+00,1,-6.163160133e-03,-1.176183172e-02,2.592656362e-02,4.303732155e+00,-1.810861109e+01,-8.925831186e+00,2.406765749e-04,2.037697802e-04,2.524150484e-04,-4.309895315e+00,1.809684926e+01,8.951757749e+00,0.000000000e+00,0.000000000e+00,0.000000000e+00,1
1681084484.7159057,3.087595972e-05,-2.582653406e-05,-1.068607142e-04,4.251806932e-03,-2.477371137e-03,-9.801442932e+00,10,6.467842177e-01,-1.406985842e+00,3.672547782e-01,0.000000000e+00,0.000000000e+00,6.467858321e-01,-1.406989475e+00,-2.593162016e+00,1.208936801e+01,-1.501310585e+01,1.613223707e-13,1.613321087e-13,1.000000235e+02,1.016156581e-02,1.020944442e-02,-1.614388626e-06,3.632741218e-06,2.960416794e+00,-1.208936801e+01,1.501310585e+01,0.000000000e+00,0.000000000e+00,0.000000000e+00,0.000000000e+00,0.000000000e+00,1,0.35089,-0.35480,0.00052,-5.690287789e-01,-9.473579570e-02,5.391283972e-01,1.196112051e+01,-1.485703277e+01,3.158330871e+00,6.467859304e-01,-1.406989228e+00,-2.587477926e+00,1.838308446e-07,2.486479317e-08,5.025031032e-09,2.474675556e-02,-1.784791161e-01,-2.549514354e-01,6.005900516e-07,5.117897831e-07,7.350138622e-07,1.585014175e-04,2.063653438e-04,1.904834218e-05,7.341328541e-15,7.350659970e-15,2.478265690e-05,7.023856713e-14,7.023858015e-14,7.023857602e-14,1.697630002e-07,1.681656316e-07,1.683848445e-07,3.791159827e-02,1.982530911e+00,9.683252917e-05,-1.944619312e+00,0.000000000e+00,1,-2.899122775e-03,8.792108134e-03,1.774872786e-03,3.017978557e+00,-1.803876713e+01,-7.908494581e+00,2.641392350e-04,1.991714975e-04,2.389652146e-04,-3.020877680e+00,1.804755923e+01,7.910269453e+00,0.000000000e+00,0.000000000e+00,0.000000000e+00,1
1681084484.8159056,2.704906008e-05,-4.652849228e-05,-4.370630725e-05,5.638282028e-03,-1.909815418e-03,-9.796951573e+00,10,6.467842177e-01,-1.406985842e+00,3.672547782e-01,0.000000000e+00,0.000000000e+00,6.467858321e-01,-1.406989475e+00,-2.593162016e+00,1.208936801e+01,-1.501310585e+01,1.613223707e-13,1.613321087e-13,1.000000235e+02,1.016156581e-02,1.020944442e-02,-1.614388626e-06,3.632741218e-06,2.960416794e+00,-1.208936801e+01,1.501310585e+01,0.000000000e+00,0.000000000e+00,0.000000000e+00,0.000000000e+00,0.000000000e+00,1,0.35304,-0.35431,0.00059,-5.690287278e-01,-9.473635457e-02,5.391295320e-01,1.205725560e+01,-1.497403740e+01,3.209334453e+00,6.467859871e-01,-1.406989316e+00,-2.683247814e+00,1.838308446e-07,2.486479317e-08,5.025031032e-09,2.474675556e-02,-1.784791161e-01,-2.549514354e-01,6.006185259e-07,5.133059078e-07,7.617312155e-07,1.607851064e-04,2.086587155e-04,1.939235180e-05,7.341643470e-15,7.351303537e-15,2.589499018e-05,7.024549743e-14,7.024551045e-14,7.024550632e-14,1.697798839e-07,1.681825153e-07,1.684017282e-07,3.791159827e-02,1.982530911e+00,9.683252917e-05,-1.944619312e+00,0.000000000e+00,1,-2.899122775e-03,8.792108134e-03,1.774872786e-03,3.017978557e+00,-1.803876713e+01,-7.908494581e+00,2.641392350e-04,1.991714975e-04,2.389652146e-04,-3.020877680e+00,1.804755923e+01,7.910269453e+00,0.000000000e+00,0.000000000e+00,0.000000000e+00,1
1681084484.9159055,4.762540017e-05,-6.426671423e-05,-4.250575779e-05,1.983998558e-03,-1.992844003e-05,-9.799932518e+00,10,6.467835225e-01,-1.406986437e+00,5.091734865e-01,0.000000000e+00,0.000000000e+00,6.467868506e-01,-1.406988420e+00,-2.260876189e+00,1.559371261e+01,-1.035751422e+01,1.609896423e-13,1.609989196e-13,1.000000233e+02,1.015924534e-02,1.019605474e-02,-3.328107351e-06,1.983453167e-06,2.770049675e+00,-1.559371261e+01,1.035751422e+01,0.000000000e+00,0.000000000e+00,0.000000000e+00,0.000000000e+00,0.000000000e+00,1,0.35315,-0.35266,-0.00125,-5.682458511e-01,-9.456275243e-02,5.440858676e-01,1.240648414e+01,-1.521832157e+01,3.357570592e+00,6.467860984e-01,-1.406989390e+00,-2.977538183e+00,1.841892558e-07,2.452818854e-08,5.097066074e-09,2.475715797e-02,-1.788207520e-01,-2.553596019e-01,6.153461729e-07,5.361961934e-07,7.868437212e-07,1.625221158e-04,2.087966254e-04,2.047858918e-05,7.008217248e-15,7.017785229e-15,2.947958676e-05,7.026628832e-14,7.026630122e-14,7.026629721e-14,1.698283898e-07,1.682297238e-07,1.684477948e-07,3.791159827e-02,1.982530911e+00,9.683252917e-05,-1.944619312e+00,0.000000000e+00,1,-2.899122775e-03,8.792108134e-03,1.774872786e-03,3.017978557e+00,-1.803876713e+01,-7.908494581e+00,2.641392350e-04,1.991714975e-04,2.389652146e-04,-3.020877680e+00,1.804755923e+01,7.910269453e+00,0.000000000e+00,0.000000000e+00,0.000000000e+00,1
1681084485.0159054,4.799528749e-05,-6.596192884e-05,-1.854140878e-05,-1.587215430e-03,1.199585486e-03,-9.799451073e+00,10,6.467835225e-01,-1.406986437e+00,5.091734865e-01,0.000000000e+00,0.000000000e+00,6.467868506e-01,-1.406988420e+00,-2.260876189e+00,1.559371261e+01,-1.035751422e+01,1.609896423e-13,1.609989196e-13,1.000000233e+02,1.015924534e-02,1.019605474e-02,-3.328107351e-06,1.983453167e-06,2.770049675e+00,-1.559371261e+01,1.035751422e+01,0.000000000e+00,0.000000000e+00,0.000000000e+00,0.000000000e+00,0.000000000e+00,1,0.35324,-0.35091,0.00085,-5.003805596e-01,-6.126421592e-02,7.886131712e-01,1.555908320e+01,-1.033005325e+01,2.573282688e+00,6.467869692e-01,-1.406988221e+00,-2.314196827e+00,2.064642012e-07,9.864442774e-09,1.137318186e-08,2.665693248e-02,-2.024341672e-01,-2.718660992e-01,5.327133400e-07,5.289147338e-07,7.793868433e-07,1.585868195e-04,1.952045729e-04,1.730192163e-05,7.008940189e-15,7.018676965e-15,2.510742850e-05,7.029169768e-14,7.029171215e-14,7.029170699e-14,1.698372007e-07,1.679087411e-07,1.682286119e-07,4.386665920e-02,1.565453925e+00,9.614309279e-05,-1.521587266e+00,0.000000000e+00,1,-1.276584997e-03,-7.667772490e-03,5.125472862e-03,3.819194928e+00,-1.753031956e+01,-6.778498759e+00,2.544866718e-04,1.934047114e-04,2.247366383e-04,-3.820471513e+00,1.752265179e+01,6.783624232e+00,0.000000000e+00,0.000000000e+00,0.000000000e+00,1
1681084485.1159053,6.927994601e-05,-2.793504663e-05,-8.922830033e-05,-5.965214808e-04,-3.157273144e-04,-9.799495771e+00,10,6.467836069e-01,-1.406985791e+00,-7.323879523e-01,0.000000000e+00,0.000000000e+00,6.467862251e-01,-1.406989346e+00,-1.828108648e+00,1.210216498e+01,-1.319988747e+01,1.606860707e-13,1.606952485e-13,1.000000213e+02,1.014995176e-02,1.018963374e-02,-2.618266453e-06,3.555213726e-06,1.095720695e+00,-1.210216498e+01,1.319988747e+01,0.000000000e+00,0.000000000e+00,0.000000000e+00,0.000000000e+00,0.000000000e+00,1,0.35417,-0.35508,-0.00086,-4.994613636e-01,-6.092589182e-02,7.846956666e-01,1.568889372e+01,-1.054536883e+01,2.647943083e+00,6.467869557e-01,-1.406988270e+00,-2.466363472e+00,2.067754781e-07,1.025703007e-08,1.127055527e-08,2.675241422e-02,-2.027673580e-01,-2.722553950e-01,5.417494611e-07,5.371626195e-07,7.690286641e-07,1.575228464e-04,1.939617187e-04,1.796177062e-05,6.704166619e-15,6.713526897e-15,2.728887807e-05,7.030555828e-14,7.030557260e-14,7.030556758e-14,1.698690012e-07,1.679390122e-07,1.682580233e-07,4.386665920e-02,1.565453925e+00,9.614309279e-05,-1.521587266e+00,0.000000000e+00,1,-1.276584997e-03,-7.667772490e-03,5.125472862e-03,3.819194928e+00,-1.753031956e+01,-6.778498759e+00,2.544866718e-04,1.934047114e-04,2.247366383e-04,-3.820471513e+00,1.752265179e+01,6.783624232e+00,0.000000000e+00,0.000000000e+00,0.000000000e+00,1
1681084485.2159052,2.128543226e-07,-6.345932322e-05,-6.191806006e-05,-4.091029322e-03,-1.319236567e-03,-9.799936237e+00,10,6.467836069e-01,-1.406985791e+00,-7.323879523e-01,0.000000000e+00,0.000000000e+00,6.467862251e-01,-1.406989346e+00,-1.828108648e+00,1.210216498e+01,-1.319988747e+01,1.606860707e-13,1.606952485e-13,1.000000213e+02,1.014995176e-02,1.018963374e-02,-2.618266453e-06,3.555213726e-06,1.095720695e+00,-1.210216498e+01,1.319988747e+01,0.000000000e+00,0.000000000e+00,0.000000000e+00,0.000000000e+00,0.000000000e+00,1,0.35304,-0.35198,-0.00077,-4.293887391e-01,-3.697505869e-02,5.878938353e-01,1.200911233e+01,-1.308131163e+01,1.905614846e+00,6.467863188e-01,-1.406989103e+00,-1.798634595e+00,2.259728619e-07,3.114257436e-08,5.745040970e-09,3.224969872e-02,-2.251360324e-01,-2.881999935e-01,5.185452385e-07,4.691078402e-07,7.818084292e-07,1.471965592e-04,1.870791901e-04,1.478648636e-05,6.704423773e-15,6.714505943e-15,2.247772442e-05,7.032403755e-14,7.032405280e-14,7.032404760e-14,1.698542211e-07,1.675827378e-07,1.679711392e-07,6.496055487e-02,1.144491600e+00,9.473523291e-05,-1.079531045e+00,0.000000000e+00,1,1.911756600e-03,1.935608147e-03,2.657326634e-02,2.839988944e+00,-1.718641954e+01,-5.742001286e+00,2.596854408e-04,1.937067010e-04,2.246259658e-04,-2.838077187e+00,1.718835514e+01,5.768574552e+00,0.000000000e+00,0.000000000e+00,0.000000000e+00,1
1681084485.315905,7.927622558e-06,-3.502807165e-05,-3.543647604e-05,-1.227836872e-03,3.880974673e-03,-9.801010123e+00,10,6.467834686e-01,-1.406986840e+00,5.283352649e-01,0.000000000e+00,0.000000000e+00,6.467867886e-01,-1.406988784e+00,-1.481855039e+00,1.353717698e+01,-1.047968251e+01,1.604071932e-13,1.604191136e-13,1.000000208e+02,1.014975015e-02,1.018076994e-02,-3.320035644e-06,1.943739060e-06,2.010190304e+00,-1.353717698e+01,1.047968251e+01,0.000000000e+00,0.000000000e+00,0.000000000e+00,0.000000000e+00,0.000000000e+00,1,0.35146,-0.35338,0.00060,-4.284320919e-01,-3.685035351e-02,5.905667438e-01,1.231110935e+01,-1.337419751e+01,2.025831639e+00,6.467864440e-01,-1.406989250e+00,-2.030116567e+00,2.263287772e-07,3.098198100e-08,5.812052872e-09,3.229219553e-02,-2.254992244e-01,-2.885378473e-01,5.368226823e-07,4.941408011e-07,8.027656366e-07,1.511544133e-04,1.891769711e-04,1.571629083e-05,6.425629895e-15,6.435958780e-15,2.633112875e-05,7.035175874e-14,7.035177385e-14,7.035176878e-14,1.699203367e-07,1.676459583e-07,1.680350440e-07,6.496055487e-02,1.144491600e+00,9.473523291e-05,-1.079531045e+00,0.000000000e+00,1,1.911756600e-03,1.935608147e-03,2.657326634e-02,2.839988944e+00,-1.718641954e+01,-5.742001286e+00,2.596854408e-04,1.937067010e-04,2.246259658e-04,-2.838077187e+00,1.718835514e+01,5.768574552e+00,0.000000000e+00,0.000000000e+00,0.000000000e+00,1
1681084485.415905,7.308599478e-05,-4.895874539e-05,-5.271557215e-05,6.179283499e-04,8.206760824e-04,-9.800684461e+00,10,6.467834686e-01,-1.406986840e+00,5.283352649e-01,0.000000000e+00,0.000000000e+00,6.467867886e-01,-1.406988784e+00,-1.481855039e+00,1.353717698e+01,-1.047968251e+01,1.604071932e-13,1.604191136e-13,1.000000208e+02,1.014975015e-02,1.018076994e-02,-3.320035644e-06,1.943739060e-06,2.010190304e+00,-1.353717698e+01,1.047968251e+01,0.000000000e+00,0.000000000e+00,0.000000000e+00,0.000000000e+00,0.000000000e+00,1,0.35313,-0.35264,-0.00057,-3.628279271e-01,-2.140406395e-02,7.276222943e-01,1.340478760e+01,-1.034537086e+01,1.348812875e+00,6.467868132e-01,-1.406988493e+00,-1.426860526e+00,2.480736260e-07,2.450179556e-08,1.028981036e-08,3.538562520e-02,-2.487150879e-01,-3.026806278e-01,5.022103012e-07,5.042184543e-07,8.045968520e-07,1.458936991e-04,1.769293762e-04,1.294888491e-05,6.425958487e-15,6.436305037e-15,2.123695606e-05,7.036561784e-14,7.036563429e-14,7.036562889e-14,1.699144970e-07,1.672355271e-07,1.677105172e-07,2.698146739e-02,7.217600140e-01,9.380598666e-05,-6.947785466e-01,0.000000000e+00,1,5.204096997e-03,5.226505497e-03,1.382715661e-03,3.167573458e+00,-1.646062168e+01,-4.741193546e+00,2.469062858e-04,1.906055563e-04,2.137922162e-04,-3.162369361e+00,1.646584819e+01,4.742576262e+00,0.000000000e+00,0.000000000e+00,0.000000000e+00,1
1681084485.515905,8.400794604e-05,-4.318367463e-05,-9.086112485e-05,1.538132082e-03,1.199902993e-03,-9.792482940e+00,10,6.467834620e-01,-1.406985831e+00,7.455415909e-02,0.000000000e+00,0.000000000e+00,6.467865222e-01,-1.406989278e+00,-1.108079322e+00,1.150110071e+01,-1.142079980e+01,1.601511506e-13,1.601624325e-13,1.000000197e+02,1.014462494e-02,1.017447188e-02,-3.060239356e-06,3.446795644e-06,1.182633481e+00,-1.150110071e+01,1.142079980e+01,0.000000000e+00,0.000000000e+00,0.000000000e+00,0.000000000e+00,0.000000000e+00,1,0.35533,-0.35187,0.00155,-3.617837310e-01,-2.091810394e-02,7.257421020e-01,1.353661667e+01,-1.053787843e+01,1.407265884e+00,6.467868408e-01,-1.406988583e+00,-1.530613732e+00,2.483990275e-07,2.474634562e-08,1.022653355e-08,3.546330965e-02,-2.490738325e-01,-3.029848285e-01,5.283364744e-07,5.040463283e-07,7.860824804e-07,1.466834734e-04,1.766893644e-04,1.346530578e-05,6.169077208e-15,6.179215796e-15,2.349263295e-05,7.038409863e-14,7.038411493e-14,7.038410967e-14,1.699582378e-07,1.672759521e-07,1.677523504e-07,2.698146739e-02,7.217600140e-01,9.380598666e-05,-6.947785466e-01,0.000000000e+00,1,5.204096997e-03,5.226505497e-03,1.382715661e-03,3.167573458e+00,-1.646062168e+01,-4.741193546e+00,2.469062858e-04,1.906055563e-04,2.137922162e-04,-3.162369361e+00,1.646584819e+01,4.742576262e+00,0.000000000e+00,0.000000000e+00,0.000000000e+00,1
1681084485.6159048,6.397725699e-05,-1.464019694e-05,-4.461732478e-05,-2.799044805e-03,-3.332501180e-03,-9.799959901e+00,10,6.467834620e-01,-1.406985831e+00,7.455415909e-02,0.000000000e+00,0.000000000e+00,6.467865222e-01,-1.406989278e+00,-1.108079322e+00,1.150110071e+01,-1.142079980e+01,1.601511506e-13,1.601624325e-13,1.000000197e+02,1.014462494e-02,1.017447188e-02,-3.060239356e-06,3.446795644e-06,1.182633481e+00,-1.150110071e+01,1.142079980e+01,0.000000000e+00,0.000000000e+00,0.000000000e+00,0.000000000e+00,0.000000000e+00,1,0.35361,-0.35425,-0.00054,-2.961889203e-01,7.930451431e-03,6.314606224e-01,1.140372523e+01,-1.127443751e+01,8.510811144e-01,6.467865601e-01,-1.406988973e+00,-1.036421031e+00,2.673955439e-07,3.786188436e-08,6.833688088e-09,3.990802074e-02,-2.711139334e-01,-3.161252351e-01,5.260457710e-07,4.804366667e-07,7.980683286e-07,1.401280737e-04,1.708353708e-04,1.134691468e-05,6.169720457e-15,6.180741812e-15,2.010342025e-05,7.040719829e-14,7.040721546e-14,7.040721006e-14,1.699719585e-07,1.668759971e-07,1.673925875e-07,-1.080049422e-02,3.001175279e-01,9.231349102e-05,-3.109180221e-01,0.000000000e+00,1,4.506572877e-03,-1.626679228e-03,-2.117848444e-02,2.518603502e+00,-1.579286324e+01,-3.790369106e+00,2.450349369e-04,1.924953443e-04,2.233482819e-04,-2.514096929e+00,1.579123656e+01,3.769190622e+00,0.000000000e+00,0.000000000e+00,0.000000000e+00,1
1681084485.7159047,5.131255839e-05,-6.780915724e-05,-6.576906789e-05,4.329804096e-03,-7.960585526e-05,-9.800334309e+00,10,6.467829653e-01,-1.406985957e+00,-1.099842496e+00,0.000000000e+00,0.000000000e+00,6.467866860e-01,-1.406988991e+00,-7.458133932e-01,1.144414706e+01,-9.945542164e+00,1.599144839e-13,1.599244236e-13,1.000000182e+02,1.013924905e-02,1.016221644e-02,-3.720704707e-06,3.034222634e-06,-3.540291031e-01,-1.144414706e+01,9.945542164e+00,0.000000000e+00,0.000000000e+00,0.000000000e+00,0.000000000e+00,0.000000000e+00,1,0.35372,-0.35282,-0.00020,-2.950711931e-01,8.148530764e-03,6.325470039e-01,1.156834317e+01,-1.149134233e+01,9.209610191e-01,6.467866593e-01,-1.406989099e+00,-1.136277497e+00,2.677513830e-07,3.784504968e-08,6.871789547e-09,3.996590573e-02,-2.714806021e-01,-3.163829717e-01,5.808841284e-07,4.970442045e-07,8.051443495e-07,1.439480510e-04,1.722830873e-04,1.191738310e-05,5.932968959e-15,5.944159833e-15,2.319490983e-05,7.043491948e-14,7.043493650e-14,7.043493123e-14,1.700385271e-07,1.669383180e-07,1.674575640e-07,-1.080049422e-02,3.001175279e-01,9.231349102e-05,-3.109180221e-01,0.000000000e+00,1,4.506572877e-03,-1.626679228e-03,-2.117848444e-02,2.518603502e+00,-1.579286324e+01,-3.790369106e+00,2.450349369e-04,1.924953443e-04,2.233482819e-04,-2.514096929e+00,1.579123656e+01,3.769190622e+00,0.000000000e+00,0.000000000e+00,0.000000000e+00,1
1681084485.8159046,6.376402737e-05,-5.581518001e-05,-3.853880386e-05,4.163618000e-03,2.175134212e-03,-9.796449860e+00,10,6.467829653e-01,-1.406985957e+00,-1.099842496e+00,0.000000000e+00,0.000000000e+00,6.467866860e-01,-1.406988991e+00,-7.458133932e-01,1.144414706e+01,-9.945542164e+00,1.599144839e-13,1.599244236e-13,1.000000182e+02,1.013924905e-02,1.016221644e-02,-3.720704707e-06,3.034222634e-06,-3.540291031e-01,-1.144414706e+01,9.945542164e+00,0.000000000e+00,0.000000000e+00,0.000000000e+00,0.000000000e+00,0.000000000e+00,1,0.35320,-0.35350,0.00160,-2.298968860e-01,2.289443091e-02,6.868420940e-01,1.141439867e+01,-9.897301822e+00,4.341427999e-01,6.467867892e-01,-1.406988771e+00,-7.028705847e-01,2.874786250e-07,3.796603863e-08,9.302517135e-09,4.341209582e-02,-2.929316085e-01,-3.280392494e-01,5.478886538e-07,4.762673072e-07,8.291677043e-07,1.374960052e-04,1.608403334e-04,1.001711178e-05,5.933511873e-15,5.945084147e-15,1.946155661e-05,7.045339868e-14,7.045341694e-14,7.045341132e-14,1.700500472e-07,1.665088414e-07,1.670408942e-07,6.543068053e-02,-1.006732285e-01,9.091736133e-05,1.661039090e-01,0.000000000e+00,1,-7.924095619e-03,1.061537373e-03,1.632243275e-02,2.493830521e+00,-1.489218691e+01,-2.888235427e+00,2.509370340e-04,1.918989165e-04,2.210395412e-04,-2.501754617e+00,1.489324844e+01,2.904557860e+00,0.000000000e+00,0.000000000e+00,0.000000000e+00,1
1681084485.9159045,4.801852971e-05,-3.073750666e-05,-1.434651802e-05,2.262272783e-03,1.404384909e-03,-9.796214084e+00,10,6.467833586e-01,-1.406986007e+00,8.415556260e-01,0.000000000e+00,0.000000000e+00,6.467866091e-01,-1.406989156e+00,-4.579080513e-01,1.022296088e+01,-9.759316552e+00,1.596962381e-13,1.597096105e-13,1.000000178e+02,1.013339045e-02,1.015202699e-02,-3.250478800e-06,3.149216258e-06,1.299463677e+00,-1.022296088e+01,9.759316552e+00,0.000000000e+00,0.000000000e+00,0.000000000e+00,0.000000000e+00,0.000000000e+00,1,0.35462,-0.35361,0.00114,-2.287807800e-01,2.328561869e-02,6.862754647e-01,1.152734686e+01,-1.011494643e+01,4.983515655e-01,6.467868990e-01,-1.406988933e+00,-7.610309718e-01,2.877959983e-07,3.810007864e-08,9.276264636e-09,4.347618812e-02,-2.932790433e-01,-3.282573449e-01,6.521004535e-07,4.968641376e-07,8.544960438e-07,1.425098137e-04,1.635099230e-04,1.054892856e-05,5.714496864e-15,5.726386678e-15,2.277701515e-05,7.048574007e-14,7.048575818e-14,7.048575269e-14,1.701281064e-07,1.665823108e-07,1.671176033e-07,6.543068053e-02,-1.006732285e-01,9.091736133e-05,1.661039090e-01,0.000000000e+00,1,-7.924095619e-03,1.061537373e-03,1.632243275e-02,2.493830521e+00,-1.489218691e+01,-2.888235427e+00,2.509370340e-04,1.918989165e-04,2.210395412e-04,-2.501754617e+00,1.489324844e+01,2.904557860e+00,0.000000000e+00,0.000000000e+00,0.000000000e+00,1
1681084486.0159044,8.369852139e-05,-8.820212318e-05,-3.203524261e-05,1.419554113e-03,1.763005341e-03,-9.797422897e+00,10,6.467842427e-01,-1.406986112e+00,-2.942262902e-01,0.000000000e+00,0.000000000e+00,6.467866662e-01,-1.406989129e+00,-1.905695292e-01,9.485523293e+00,-8.909000175e+00,1.594928595e-13,1.595038781e-13,1.000000172e+02,1.012737177e-02,1.013973488e-02,-2.423512738e-06,3.017721899e-06,-1.036567610e-01,-9.485523293e+00,8.909000175e+00,0.000000000e+00,0.000000000e+00,0.000000000e+00,0.000000000e+00,0.000000000e+00,1,0.35406,-0.35321,0.00209,-1.645175726e-01,4.518342136e-02,6.585366399e-01,1.024044230e+01,-9.841027385e+00,1.429737680e-01,6.467867805e-01,-1.406989038e+00,-4.028483724e-01,3.058174805e-07,4.550955011e-08,7.895854730e-09,4.709532624e-02,-3.135131508e-01,-3.391782978e-01,6.234064898e-07,5.358031045e-07,8.960928546e-07,1.347459731e-04,1.516294355e-04,9.183335533e-06,5.511119996e-15,5.523299916e-15,2.122981615e-05,7.052501039e-14,7.052502911e-14,7.052502398e-14,1.701923242e-07,1.662033814e-07,1.667094924e-07,4.607893792e-02,-4.232520905e-01,9.018384126e-05,4.693310284e-01,0.000000000e+00,1,4.576307263e-03,-1.047626534e-03,1.207707428e-02,2.057902300e+00,-1.397142969e+01,-2.052847013e+00,2.512547817e-04,1.935529278e-04,2.236336706e-04,-2.053325993e+00,1.397038207e+01,2.064924087e+00,0.000000000e+00,0.000000000e+00,0.000000000e+00,1
